City_ID,City,Lat,Lng,Max Temp,Humidity,Cloudiness,Wind Speed,Country,Date
0,hadibu,12.65,54.0333,26.72,81,75,1.88,YE,1696980046
1,usinsk,65.9939,57.5281,2.26,76,100,10.73,RU,1696979979
2,yellowknife,62.456,-114.3525,14.67,76,75,3.09,CA,1696980545
3,san antonio de pale,-1.4014,5.6325,25.65,84,96,5.67,GQ,1696980007
4,pallasovka,50.05,46.8833,7.07,57,100,4.89,RU,1696980546
5,teshi old town,5.5836,-0.1072,27.31,89,20,4.63,GH,1696980546
6,sitka,57.0531,-135.33,11.94,76,20,1.54,US,1696980546
7,glace bay,46.1969,-59.957,11.65,96,40,3.09,CA,1696980438
8,grytviken,-54.2811,-36.5092,0.98,99,100,3.6,GS,1696980546
9,pisco,-13.7,-76.2167,20.03,77,0,8.75,PE,1696980547
10,khabarovsk,48.4808,135.0928,5.89,53,0,4.02,RU,1696980547
11,badger,64.8,-147.5333,-0.57,87,100,4.12,US,1696980547
12,tazovsky,67.4667,78.7,3.01,97,100,9.62,RU,1696980547
13,longyearbyen,78.2186,15.6401,-9.09,79,20,5.14,SJ,1696979952
14,avarua,-21.2078,-159.775,25.03,65,40,4.12,CK,1696980547
15,egilsstadir,65.2653,-14.3948,4.95,81,100,2.06,IS,1696980548
16,albany,42.6001,-73.9662,12.36,75,100,1.36,US,1696980548
17,edinburgh of the seven seas,-37.0676,-12.3116,13.83,94,100,5.68,SH,1696980322
18,port-aux-francais,-49.35,70.2167,1.09,67,99,16.13,TF,1696979949
19,muynoq,43.7683,59.0214,10.35,41,94,0.74,UZ,1696980127
20,fort bragg,35.139,-79.006,24.34,47,0,3.6,US,1696980033
21,pandan,14.0453,124.1694,27.38,87,95,2.56,PH,1696980549
22,mount pearl,47.5166,-52.7813,11.09,98,100,5.14,CA,1696979989
23,waitangi,-43.9535,-176.5597,10.46,68,81,3.58,NZ,1696979958
24,bredasdorp,-34.5322,20.0403,15.29,82,64,4.55,ZA,1696979954
25,west island,-12.1568,96.8225,24.99,78,100,6.69,CC,1696979962
26,adamstown,-25.066,-130.1015,20.35,66,97,5.98,PN,1696979950
27,port lincoln,-34.7333,135.8667,22.77,37,3,7.49,AU,1696980000
28,uturoa,-16.7333,-151.4333,26.43,80,62,4.67,PF,1696979994
29,kachia,9.8667,7.95,21.98,79,75,1.37,NG,1696980550
30,cam ranh,11.9214,109.1591,25.98,94,20,1.54,VN,1696980038
31,areia branca,-4.9561,-37.1369,26.51,74,24,9.67,BR,1696980550
32,sovetskaya gavan',48.9723,140.2878,8.39,56,0,2.38,RU,1696980012
33,wailua homesteads,22.0669,-159.378,28.24,76,40,6.17,US,1696979958
34,taksimo,56.3444,114.8794,8.73,68,79,0.89,RU,1696980551
35,riobamba,-1.6667,-78.6333,12.68,90,89,2.16,EC,1696980551
36,bilibino,68.0546,166.4372,-13.36,93,86,1.33,RU,1696979956
37,savelugu,9.6244,-0.8253,26.27,80,56,2.47,GH,1696980551
38,papatowai,-46.5619,169.4708,10.68,47,83,6.68,NZ,1696979958
39,san luis,-33.295,-66.3356,20.01,22,0,8.25,AR,1696980130
40,galle,6.0367,80.217,25.6,87,100,0.94,LK,1696980141
41,ancud,-41.8697,-73.8203,7.98,61,82,4.77,CL,1696980028
42,georgetown,5.4112,100.3354,26.68,96,40,2.06,MY,1696979960
43,cabo san lucas,22.8909,-109.9124,28.75,86,75,2.06,MX,1696979901
44,williams lake,52.1415,-122.1445,14.47,46,75,5.66,CA,1696980553
45,tynda,55.1667,124.7167,2.12,85,79,1.57,RU,1696980036
46,udachny,66.4167,112.4,8.03,81,100,10.42,RU,1696979955
47,tura,25.5198,90.2201,21.53,88,5,1.18,IN,1696980047
48,visby,57.6409,18.296,11.12,93,100,11.32,SE,1696980097
49,hithadhoo,-0.6,73.0833,27.3,75,97,7.54,MV,1696979979
50,chatham,51.3789,0.5279,16.25,72,86,1.34,GB,1696980391
51,puerto ayora,-0.7393,-90.3518,24.75,90,47,3.58,EC,1696979976
52,qa'en,33.7265,59.1844,16.79,26,1,1.55,IR,1696980554
53,melfort,52.8667,-104.6177,15.07,38,0,5.66,CA,1696980445
54,nuuk,64.1835,-51.7216,0.34,86,100,6.71,GL,1696980018
55,puerto natales,-51.7236,-72.4875,3.86,82,48,5.07,CL,1696979951
56,luganville,-15.5333,167.1667,25.11,72,99,5.58,VU,1696980555
57,chonchi,-42.6128,-73.8092,7.84,66,41,3.11,CL,1696980006
58,haiku-pauwela,20.9219,-156.3051,29.01,53,40,8.75,US,1696980000
59,talnakh,69.4865,88.3972,2.34,97,100,4.81,RU,1696980005
60,whitehorse,60.7161,-135.0538,9.45,60,100,5.14,CA,1696980556
61,sandnessjoen,66.0217,12.6316,8.06,76,100,4.63,NO,1696980121
62,tamandare,-8.7597,-35.1047,25.24,78,83,3.36,BR,1696980556
63,horta,38.5333,-28.6333,20.57,87,71,6.71,PT,1696980125
64,petropavlovsk-kamchatsky,53.0452,158.6483,5.33,89,40,4.92,RU,1696979952
65,lompoc,34.6391,-120.4579,26.68,71,20,9.26,US,1696979970
66,ola,59.5833,151.2833,-0.88,66,98,1.83,RU,1696980013
67,hammerfest,70.6634,23.6821,-1.75,80,14,1.54,NO,1696980331
68,chikwawa,-16.0335,34.8009,26.08,49,3,2.98,MW,1696980557
69,wanaraja,-7.1749,107.9808,21.64,59,72,1.4,ID,1696980558
70,invercargill,-46.4,168.35,11.68,59,81,3.58,NZ,1696979958
71,codrington,-38.2667,141.9667,18.91,45,5,6.7,AU,1696979965
72,bethel,41.3712,-73.414,15.38,79,40,1.54,US,1696980558
73,ushuaia,-54.8,-68.3,0.81,94,100,2.57,AR,1696980321
74,port saint john's,-31.6229,29.5448,19.25,94,100,5.72,ZA,1696980094
75,middlebury (village),44.0153,-73.1673,11.48,63,100,0.0,US,1696980377
76,tual,-5.6667,132.75,26.32,80,85,7.8,ID,1696980113
77,sisimiut,66.9395,-53.6735,0.48,91,100,3.84,GL,1696979968
78,acapulco de juarez,16.8634,-99.8901,24.9,88,100,3.6,MX,1696979811
79,akureyri,65.6835,-18.0878,2.96,87,75,13.38,IS,1696979973
80,dudinka,69.4058,86.1778,2.57,93,100,6.71,RU,1696979962
81,margaret river,-33.95,115.0667,13.36,59,62,5.87,AU,1696979964
82,lihue,21.9789,-159.3672,28.58,70,40,6.17,US,1696980560
83,papao,-17.75,-149.55,28.82,78,82,3.11,PF,1696980019
84,mount gambier,-37.8333,140.7667,17.83,37,5,5.3,AU,1696979960
85,mangaratiba,-22.9597,-44.0406,22.48,89,100,1.16,BR,1696980515
86,aasiaat,68.7098,-52.8699,-1.86,97,100,4.9,GL,1696979970
87,nova sintra,14.8667,-24.7167,24.45,78,58,1.13,CV,1696979978
88,flying fish cove,-10.4217,105.6791,24.82,94,100,3.6,CX,1696980022
89,punta arenas,-53.15,-70.9167,6.06,75,75,8.23,CL,1696980560
90,butterworth,5.3991,100.3638,26.74,96,40,2.06,MY,1696980561
91,nar'yan-mar,67.6713,53.087,1.17,76,54,4.02,RU,1696980019
92,iwon-up,40.3231,128.6553,14.28,55,4,2.15,KP,1696980114
93,kavarna,43.4333,28.3333,9.6,58,26,4.34,BG,1696980561
94,urangan,-25.3,152.9,21.13,63,1,2.23,AU,1696980099
95,ceeldheer,3.8488,47.1806,26.35,84,62,6.67,SO,1696979984
96,sao jose da coroa grande,-8.8978,-35.1478,25.31,78,78,3.49,BR,1696980013
97,tarnby,55.6303,12.6004,16.24,94,75,5.66,DK,1696980562
98,kansas city,39.0997,-94.5786,22.16,45,0,3.6,US,1696980321
99,meadow lakes,61.6247,-149.6011,4.3,91,100,0.45,US,1696980562
100,kodiak,57.79,-152.4072,7.73,36,0,6.17,US,1696979966
101,san patricio,28.017,-97.5169,22.69,89,100,3.02,US,1696979970
102,ahero,-0.1746,34.9163,20.84,76,99,0.69,KE,1696980563
103,mercedes,-34.6515,-59.4307,21.13,79,100,1.59,AR,1696980563
104,dwarka,22.2394,68.9678,26.99,72,39,3.89,IN,1696980127
105,touros,-5.1989,-35.4608,25.73,76,43,6.55,BR,1696980086
106,bojia,26.4672,111.9681,17.3,92,96,1.17,CN,1696980564
107,hasaki,35.7333,140.8333,17.38,53,83,9.42,JP,1696979965
108,grums,59.3466,13.1091,14.28,94,75,7.2,SE,1696980564
109,swakopmund,-22.6833,14.5333,13.88,87,91,1.34,NA,1696980026
110,jamestown,42.097,-79.2353,9.8,57,100,4.12,US,1696980529
111,arkhangel'sk,64.5401,40.5433,0.07,91,39,3.03,RU,1696980048
112,marsh harbour,26.5412,-77.0636,28.46,74,100,1.69,BS,1696980565
113,kingston,17.997,-76.7936,30.53,74,20,7.72,JM,1696979975
114,greenville,35.6127,-77.3663,20.09,77,0,0.0,US,1696980299
115,blackmans bay,-43.0167,147.3167,15.29,59,69,0.38,AU,1696980566
116,taoudenni,22.6783,-3.9836,29.72,16,62,5.26,ML,1696980042
117,mersrags,57.3354,23.1246,10.27,82,100,8.38,LV,1696980567
118,mugia,43.1041,-9.2179,19.98,56,31,1.43,ES,1696979985
119,luderitz,-26.6481,15.1594,14.47,88,14,2.43,NA,1696980036
120,fatehpur,25.9333,80.8,25.32,48,2,1.04,IN,1696980567
121,hotan,37.0997,79.9269,13.77,38,1,1.3,CN,1696980567
122,kapuskasing,49.4169,-82.4331,5.0,93,75,3.09,CA,1696980036
123,las heras,-46.5419,-68.9359,8.42,32,99,3.72,AR,1696980568
124,saint-pierre,-21.3393,55.4781,21.82,60,0,2.06,RE,1696979971
125,port elizabeth,-33.918,25.5701,17.16,96,100,5.66,ZA,1696980568
126,malango,-2.9627,119.9001,20.31,83,99,0.49,ID,1696980048
127,muli,2.9167,73.5667,28.03,75,76,7.63,MV,1696980568
128,tinghir,31.5157,-5.5343,20.98,32,100,0.43,MA,1696980568
129,medeiros neto,-17.3739,-40.2206,23.38,81,17,5.88,BR,1696980569
130,ibarreta,-25.2144,-59.8585,34.89,31,70,3.75,AR,1696980569
131,srivardhan,18.0333,73.0167,26.14,82,43,3.39,IN,1696980569
132,chibougamau,49.9168,-74.3659,6.79,93,100,3.09,CA,1696980569
133,hawaiian paradise park,19.5933,-154.9731,27.15,78,100,2.57,US,1696980569
134,mejit,10.2753,170.8646,27.86,74,74,6.19,MH,1696979997
135,kenai,60.5544,-151.2583,6.72,62,100,1.54,US,1696980139
136,harper,4.375,-7.7169,25.23,88,79,2.58,LR,1696980570
137,siena,43.2167,11.4,19.17,96,82,1.1,IT,1696980570
138,marang,5.2056,103.2059,24.96,88,40,1.49,MY,1696980570
139,were ilu,10.6,39.4333,9.62,74,56,2.77,ET,1696980570
140,atafu village,-8.5421,-172.5159,28.49,77,84,4.8,TK,1696980571
141,ribeira grande,38.5167,-28.7,20.99,87,70,6.71,PT,1696979971
142,port-vila,-17.7338,168.3219,25.78,57,40,6.17,VU,1696980009
143,sao joao da barra,-21.6403,-41.0511,23.05,84,100,3.58,BR,1696980013
144,thompson,55.7435,-97.8558,11.09,58,75,1.03,CA,1696980389
145,benguela,-12.5763,13.4055,22.98,86,93,1.64,AO,1696980571
146,olonkinbyen,70.9221,-8.7187,3.41,77,100,16.65,SJ,1696980571
147,atvidaberg,58.2015,15.9977,13.32,94,100,6.02,SE,1696980572
148,mar del plata,-38.0023,-57.5575,17.19,70,0,4.63,AR,1696979853
149,dapa,9.7594,126.0531,26.84,83,100,4.92,PH,1696980572
150,hamilton,39.1834,-84.5333,15.47,45,0,3.6,US,1696980358
151,bejaia,36.7559,5.0843,18.6,82,0,2.06,DZ,1696980572
152,port augusta,-32.5,137.7667,25.66,34,0,8.62,AU,1696980048
153,afaahiti,-17.75,-149.2833,27.93,85,81,4.1,PF,1696979981
154,vila franca do campo,37.7167,-25.4333,22.23,99,91,6.22,PT,1696980010
155,barentu,15.1139,37.5928,25.1,40,1,1.97,ER,1696980573
156,souillac,-20.5167,57.5167,20.21,94,40,1.54,MU,1696980065
157,keflavik,64.0049,-22.5624,4.24,70,75,14.92,IS,1696979988
158,kapenguria,1.2511,35.0895,15.02,82,98,1.27,KE,1696980573
159,tranqueras,-31.2,-55.75,18.12,89,0,1.61,UY,1696980574
160,prineville,44.2999,-120.8345,16.06,57,75,4.63,US,1696980574
161,laguna,38.421,-121.4238,23.28,50,100,6.17,US,1696979992
162,general conesa,-40.1,-64.4333,10.32,54,95,8.29,AR,1696980574
163,guatire,10.4762,-66.5427,23.54,97,20,0.75,VE,1696980574
164,new plymouth,-39.0667,174.0833,12.4,56,70,6.91,NZ,1696980575
165,callao,-12.0667,-77.15,23.18,77,75,5.66,PE,1696980097
166,simdega,22.6167,84.5167,22.16,76,0,1.21,IN,1696980575
167,gebeit,21.0667,36.3167,27.44,41,0,1.94,SD,1696980320
168,manismata,-2.4667,111.0333,23.27,91,90,1.04,ID,1696980575
169,adamovka,51.5223,59.9396,5.55,83,70,6.26,RU,1696980575
170,tiksi,71.6872,128.8694,-12.75,99,65,0.69,RU,1696980045
171,kununurra,-15.7667,128.7333,28.99,54,87,2.57,AU,1696979992
172,antsiranana,-12.2787,49.2917,22.28,87,74,5.22,MG,1696980125
173,el calafate,-50.3408,-72.2768,2.52,71,31,4.71,AR,1696980576
174,kill devil hills,36.0307,-75.676,21.1,73,0,0.0,US,1696979993
175,oranjemund,-28.55,16.4333,15.19,89,2,2.6,NA,1696979982
176,ta`u,-14.2336,-169.5144,26.76,79,76,8.74,AS,1696980044
177,mogocha,53.7333,119.7667,4.86,81,9,0.89,RU,1696980046
178,iqaluit,63.7506,-68.5145,0.85,86,100,1.03,CA,1696980577
179,holualoa,19.6228,-155.9522,26.91,74,20,4.63,US,1696980577
180,khairpur nathan shah,27.0936,67.7337,26.29,16,0,2.26,PK,1696980577
181,ulsteinvik,62.3432,5.8487,12.09,76,100,9.39,NO,1696980577
182,new norfolk,-42.7826,147.0587,15.51,47,91,1.45,AU,1696980001
183,westport,41.1415,-73.3579,16.87,72,75,5.66,US,1696980578
184,severo-yeniseyskiy,60.3725,93.0408,8.1,92,100,3.58,RU,1696980578
185,misratah,32.3754,15.0925,23.7,66,0,2.45,LY,1696980035
186,la'ie,21.6477,-157.9253,30.98,64,93,4.85,US,1696980578
187,kangiwa,12.5521,3.8187,29.97,42,11,2.09,NG,1696980579
188,chimoio,-19.1164,33.4833,20.92,94,75,1.79,MZ,1696980579
189,kapa'a,22.0752,-159.319,28.99,76,40,6.17,US,1696979994
190,zouerate,22.7187,-12.4521,29.44,11,0,4.34,MR,1696980131
191,arraial do cabo,-22.9661,-42.0278,21.98,88,0,2.57,BR,1696980032
192,alice springs,-23.7,133.8833,24.75,12,0,0.0,AU,1696980002
193,jiuquan,39.7432,98.5174,11.09,23,100,2.72,CN,1696980579
194,mili,6.0815,171.735,28.62,76,97,3.28,MH,1696980580
195,chernyshevskiy,63.0128,112.4714,7.7,91,100,5.65,RU,1696980580
196,bathsheba,13.2167,-59.5167,28.34,78,40,5.66,BB,1696980044
197,muroto-misakicho,33.2833,134.15,19.96,59,100,6.47,JP,1696980022
198,hermanus,-34.4187,19.2345,14.5,88,7,4.79,ZA,1696980580
199,carnarvon,-24.8667,113.6333,19.31,58,3,11.22,AU,1696979994
200,kudahuvadhoo,2.6708,72.8944,27.96,76,77,7.01,MV,1696980581
201,enewetak,11.3474,162.3373,28.83,75,86,7.44,MH,1696979988
202,liberty lake,47.6759,-117.1182,12.97,90,100,2.06,US,1696980581
203,ilulissat,69.2167,-51.1,-2.99,100,100,0.0,GL,1696980000
204,stanley,54.868,-1.6985,17.01,85,75,5.66,GB,1696980581
205,ust-nera,64.5667,143.2,-7.1,96,100,1.79,RU,1696979985
206,zyrya,40.3661,50.2917,15.05,64,100,1.63,AZ,1696980582
207,inhambane,-23.865,35.3833,22.73,76,59,5.37,MZ,1696980582
208,kurumkan,54.3,110.3,6.18,90,6,0.45,RU,1696980582
209,qaqortoq,60.7167,-46.0333,5.37,57,100,1.95,GL,1696980025
210,hami,42.8,93.45,15.96,19,94,3.29,CN,1696980043
211,balqash,46.8481,74.995,14.85,62,94,2.86,KZ,1696980582
212,vilyuchinsk,52.9306,158.4028,6.15,60,15,5.44,RU,1696980583
213,liwale,-9.7667,37.9333,18.99,94,4,1.58,TZ,1696980583
214,plouzane,48.3833,-4.6167,16.1,94,100,4.63,FR,1696980583
215,angaur state,6.906,134.13,28.4,81,100,10.18,PW,1696980083
216,klyuchi,52.2667,79.1667,15.06,53,100,5.62,RU,1696980583
217,tamanrasset,22.785,5.5228,20.95,23,40,1.54,DZ,1696980584
218,montevideo,-34.8335,-56.1674,19.84,73,0,1.54,UY,1696980479
219,bandar lampung,-5.4254,105.258,22.89,92,39,0.44,ID,1696980584
220,margate,51.3813,1.3862,16.04,83,100,2.24,GB,1696980029
221,ivdel',60.6911,60.4206,3.99,86,68,1.34,RU,1696980585
222,rocha,-34.4833,-54.3333,14.75,80,90,2.8,UY,1696980326
223,utrik,11.2278,169.8474,28.0,71,95,6.43,MH,1696980585
224,hirara,24.8,125.2833,27.15,69,75,8.23,JP,1696980085
225,constantia,44.1833,28.65,7.61,47,21,3.84,RO,1696980459
226,xilin hot,43.9667,116.0333,6.72,73,8,1.01,CN,1696980586
227,yamada,39.4667,141.95,15.53,76,30,3.67,JP,1696980041
228,foso,5.7012,-1.2866,23.44,99,99,1.35,GH,1696980586
229,santa ana de yacuma,-13.75,-65.4333,32.97,49,11,3.09,BO,1696980129
230,leninskoye,41.7589,69.3864,17.14,28,31,1.57,KZ,1696980586
231,port alfred,-33.5906,26.891,16.77,95,99,2.68,ZA,1696979994
232,igarka,67.4667,86.5833,2.26,88,100,8.79,RU,1696980117
233,dolinsk,47.35,142.8,8.16,65,1,2.3,RU,1696980587
234,al kharijah,25.4514,30.5464,22.99,40,2,3.75,EG,1696980587
235,mpongwe,-13.5091,28.155,21.93,48,1,3.02,ZM,1696980587
236,fort st. john,56.2499,-120.8529,14.94,47,75,1.03,CA,1696980330
237,corleone,37.8134,13.3017,20.97,40,11,1.36,IT,1696980588
238,villa gesell,-37.2639,-56.973,14.08,92,100,7.26,AR,1696979999
239,sirvintos,55.05,24.95,5.35,78,95,4.1,LT,1696980588
240,college,64.8569,-147.8028,-0.52,88,100,4.12,US,1696980588
241,remontnoye,46.5614,43.6501,7.94,44,100,2.96,RU,1696980588
242,susuman,62.7833,148.1667,-12.23,92,88,0.45,RU,1696980036
243,wanning,18.8003,110.3967,24.37,96,98,1.93,CN,1696980131
244,reggane,26.7158,0.1714,28.35,18,100,7.05,DZ,1696980589
245,semdinli,37.3051,44.5742,13.02,93,92,1.8,TR,1696980589
246,colonia,50.9333,6.95,19.12,77,0,1.54,DE,1696980452
247,hashtpar,37.8008,48.9037,19.16,89,100,3.27,IR,1696980590
248,neiafu,-18.65,-173.9833,26.38,57,75,3.6,TO,1696980590
249,porto novo,6.4965,2.6036,25.97,86,100,2.46,BJ,1696979951
250,chapaev,50.2,51.1667,4.69,65,97,3.6,KZ,1696980591
251,vilyuysk,63.7553,121.6247,6.77,91,100,4.47,RU,1696980111
252,st. john's,47.5649,-52.7093,11.55,98,100,5.14,CA,1696980591
253,linfen,36.0889,111.5189,15.01,57,35,2.08,CN,1696980592
254,key west,24.5557,-81.7826,29.0,84,40,3.6,US,1696980395
255,santa marta de ortigueira,43.6833,-7.85,20.4,54,11,2.06,ES,1696980592
256,lokbatan,40.3237,49.728,14.99,63,100,0.33,AZ,1696980592
257,sao felix do xingu,-6.6447,-51.995,31.91,33,65,0.77,BR,1696980593
258,merowe,18.4833,31.8167,31.21,26,0,9.11,SD,1696980593
259,tolanaro,-25.0319,46.9987,21.17,94,36,0.99,MG,1696980015
260,isafjordur,66.0755,-23.124,1.56,97,100,13.04,IS,1696980019
261,myitkyina,25.3833,97.4,21.83,99,91,0.79,MM,1696980593
262,quepos,9.4236,-84.1652,27.5,85,100,0.16,CR,1696980356
263,saipan,15.1355,145.701,27.39,94,100,14.4,MP,1696980017
264,itoman,26.1247,127.6694,26.43,62,40,7.72,JP,1696980594
265,ponta delgada,37.7333,-25.6667,22.4,88,20,5.14,PT,1696980594
266,buzuluk,52.7807,52.2635,5.54,63,100,6.71,RU,1696980594
267,northam,51.0333,-4.2167,18.14,97,84,5.99,GB,1696980594
268,lebu,-37.6167,-73.65,10.06,71,40,8.45,CL,1696980595
269,soe,-9.8607,124.284,23.96,49,15,1.61,ID,1696980097
270,salalah,17.0151,54.0924,26.05,83,20,1.54,OM,1696980020
271,port mathurin,-19.6833,63.4167,23.35,76,47,6.34,MU,1696980595
272,dhidhdhoo,6.8833,73.1,27.67,74,100,2.54,MV,1696980020
273,wau,7.7029,27.9953,21.07,96,100,1.7,SS,1696980595
274,khao yoi,13.2403,99.8243,24.59,93,99,2.39,TH,1696980596
275,berdigestyakh,62.0989,126.6992,4.05,95,100,3.58,RU,1696980596
276,anadyr,64.75,177.4833,0.28,74,75,6.71,RU,1696980596
277,healdsburg,38.6105,-122.8692,19.4,77,100,4.12,US,1696980329
278,zindah jan,34.3426,61.7468,18.67,30,6,1.78,AF,1696980596
279,bardai,11.65,7.2333,25.25,38,9,1.9,NG,1696980114
280,sao miguel do araguaia,-13.275,-50.1628,29.03,52,53,1.69,BR,1696980597
281,president roxas,7.1544,125.0558,24.67,92,100,0.24,PH,1696980597
282,zyryanovsk,49.7386,84.2719,8.87,63,5,0.79,KZ,1696980597
283,dera bugti,29.0307,69.151,24.31,24,0,1.64,PK,1696980597
284,ribas do rio pardo,-20.4431,-53.7592,29.16,52,30,3.01,BR,1696980598
285,fisterra,42.9049,-9.2629,19.97,58,34,1.45,ES,1696980008
286,walvis bay,-22.9575,14.5053,13.94,82,99,5.17,NA,1696980053
287,katima mulilo,-17.5,24.2667,27.18,20,4,3.99,NA,1696980598
288,kailua-kona,19.6406,-155.9956,29.72,71,20,4.63,US,1696979832
289,ikizce,41.0583,37.0803,11.12,90,11,2.05,TR,1696980598
290,vecumnieki,56.6064,24.5222,8.14,75,100,4.66,LV,1696980599
291,thunder bay,48.4001,-89.3168,8.99,71,40,2.57,CA,1696980056
292,san luis de la loma,17.2706,-100.8939,24.4,91,100,2.2,MX,1696980599
293,monte alto,-21.2611,-48.4964,25.3,42,2,2.96,BR,1696980599
294,fort frances,48.5999,-93.4003,8.98,75,100,3.09,CA,1696980385
295,lospalos,-8.5186,127.0025,24.62,70,83,2.94,TL,1696980600
296,ghat,24.9647,10.1728,24.02,28,19,2.23,LY,1696980099
297,belmonte,-15.8631,-38.8828,23.87,86,30,3.82,BR,1696980600
298,nahiyat ash shinafiyah,31.5874,44.6602,30.27,21,69,1.09,IQ,1696980134
299,bakanas,44.8081,76.2772,18.43,27,100,3.84,KZ,1696980601
300,hakodate,41.7758,140.7367,14.17,67,20,2.06,JP,1696980601
301,vernon,50.2581,-119.2691,17.09,61,100,1.03,CA,1696980038
302,remire-montjoly,4.9167,-52.2667,28.02,78,0,2.57,GF,1696980015
303,rongelap,11.1635,166.8941,28.35,70,85,6.0,MH,1696980601
304,majene,-3.5403,118.9707,27.3,73,87,5.71,ID,1696980602
305,al mijlad,11.0333,27.7333,27.28,64,95,4.96,SD,1696980602
306,szolnok,47.1833,20.2,10.18,87,0,1.03,HU,1696980603
307,eraan,9.0629,117.7016,27.62,78,92,0.23,PH,1696980604
308,crane,31.3974,-102.3501,27.71,38,64,6.57,US,1696980021
309,launceston,-41.45,147.1667,12.8,71,40,7.72,AU,1696980604
310,meadow lake,34.8014,-106.5436,25.22,28,88,4.46,US,1696980133
311,eastham,41.8301,-69.9739,15.55,86,48,3.56,US,1696980605
312,mazagao,-0.115,-51.2894,29.03,68,35,3.06,BR,1696980605
313,iskateley,67.6803,53.1512,1.12,76,57,4.02,RU,1696980605
314,bridgewater,44.3835,-64.5155,12.82,80,10,3.6,CA,1696980605
315,scottburgh,-30.2867,30.7532,18.88,90,98,1.08,ZA,1696980606
316,bulungu,-4.55,18.6,20.62,98,100,0.68,CD,1696980606
317,nieuw amsterdam,5.8833,-55.0833,28.9,78,0,4.55,SR,1696980606
318,maumere,-8.6199,122.2111,28.24,61,48,0.84,ID,1696980607
319,tazacorte,28.629,-17.9293,28.42,24,0,4.47,ES,1696980607
320,pursat,12.3333,103.6667,25.39,86,100,0.32,KH,1696980607
321,aldama,22.9167,-98.0667,25.28,81,100,2.09,MX,1696980607
322,pitea,65.3172,21.4794,6.05,95,100,2.62,SE,1696980608
323,sao pedro do sul,-29.6206,-54.1789,22.36,90,0,1.82,BR,1696980608
324,cadale,2.7603,46.3222,26.22,85,65,5.76,SO,1696980051
325,salekhard,66.53,66.6019,1.39,86,100,3.56,RU,1696980609
326,bandarbeyla,9.4942,50.8122,25.34,90,59,2.87,SO,1696980028
327,fort mcmurray,56.7268,-111.381,21.77,43,0,6.69,CA,1696980328
328,nizhniy ingash,56.2,96.53,7.66,83,55,1.9,RU,1696980609
329,la quiaca,-22.1024,-65.593,15.19,21,77,2.25,AR,1696980609
330,king,47.4665,-121.8179,10.91,94,92,2.68,US,1696980609
331,katsuren-haebaru,26.3369,127.8719,26.43,62,40,4.63,JP,1696980126
332,isangel,-19.55,169.2667,25.06,65,75,2.06,VU,1696980610
333,luwuk,-0.9516,122.7875,29.5,54,94,1.78,ID,1696980610
334,anisoc,1.8658,10.7689,20.87,100,99,0.45,GQ,1696980611
335,goundam,16.4145,-3.6708,33.14,25,63,1.04,ML,1696980611
336,mahajanga,-15.7167,46.3167,25.01,88,20,0.0,MG,1696980611
337,praia da vitoria,38.7333,-27.0667,22.14,73,20,9.31,PT,1696980026
338,taltal,-25.4,-70.4833,17.39,74,23,2.08,CL,1696979772
339,mandera,3.9366,41.867,26.75,56,45,7.22,KE,1696980612
340,san pedro,14.35,121.0167,26.57,92,75,2.57,PH,1696980377
341,rivne,50.6231,26.2274,4.48,72,59,3.4,UA,1696980612
342,inari,68.906,27.0288,-1.89,85,67,1.25,FI,1696980613
343,shimoda,34.6667,138.95,21.2,79,99,1.33,JP,1696980613
344,aykhal,66.0,111.5,5.59,92,100,13.41,RU,1696980613
345,kerikeri,-35.2268,173.9474,16.06,93,90,2.19,NZ,1696980045
346,genhe,50.7833,121.5167,7.56,59,7,0.27,CN,1696980613
347,greymouth,-42.4667,171.2,10.73,74,70,5.83,NZ,1696980369
348,daru,-9.0763,143.2092,26.03,79,100,5.32,PG,1696980131
349,ibshaway,29.358,30.6814,21.67,72,74,4.5,EG,1696980614
350,auki,-8.7676,160.7034,29.4,68,76,1.19,SB,1696980014
351,nikol'sk,53.7189,46.0712,-1.29,97,20,3.02,RU,1696980614
352,borujerd,33.8973,48.7516,15.16,50,2,1.12,IR,1696980615
353,ma'rib,15.4591,45.3253,21.34,24,0,1.77,YE,1696980615
354,mpika,-11.8343,31.4529,18.72,57,23,3.25,ZM,1696980615
355,kruisfontein,-34.0033,24.7314,14.38,95,99,1.91,ZA,1696980108
356,potsdam,52.3989,13.0657,16.72,92,99,2.56,DE,1696980005
357,huinca renanco,-34.8404,-64.3758,19.54,17,93,5.92,AR,1696980616
358,sarangani,5.4033,125.4636,27.23,80,96,4.76,PH,1696980616
359,gaillon,49.161,1.3402,15.79,72,0,2.06,FR,1696980616
360,buka,40.8108,69.1986,17.43,30,11,0.13,UZ,1696980616
361,conduaga,8.862,117.4893,27.84,76,90,1.2,PH,1696980617
362,al bayda',32.7627,21.7551,16.81,84,3,2.89,LY,1696980617
363,abaete,-19.16,-45.4458,26.32,65,44,3.32,BR,1696980618
364,luau,-10.7073,22.2247,21.75,74,59,3.57,AO,1696980618
365,vorgashor,67.5833,63.95,-0.35,90,100,4.99,RU,1696980618
366,nora,59.5193,15.0398,13.8,100,100,2.24,SE,1696980618
367,cockburn town,21.4612,-71.1419,29.3,77,96,6.59,TC,1696980021
368,yantai,37.5333,121.4,18.4,58,58,1.19,CN,1696980619
369,weno,7.4515,151.8468,30.97,79,75,2.57,FM,1696980619
370,palmer,42.1584,-72.3287,13.06,77,75,0.0,US,1696980102
371,karratha,-20.7377,116.8463,27.08,52,3,1.95,AU,1696979916
372,changping,40.2186,116.2197,8.8,60,0,1.11,CN,1696980620
373,mahina,-17.5065,-149.489,28.87,61,75,3.6,PF,1696979839
374,kovdor,67.5662,30.4758,-6.4,97,10,1.33,RU,1696980620
375,dunedin,-45.8742,170.5036,11.59,42,33,0.85,NZ,1696980503
376,madang,-5.2246,145.7966,26.58,89,99,0.77,PG,1696980080
377,mangai,-4.05,19.5333,21.19,99,99,0.93,CD,1696980621
378,fale old settlement,-9.3852,-171.2468,28.06,78,71,4.18,TK,1696980622
379,impfondo,1.6381,18.0667,21.23,95,100,1.45,CG,1696980043
380,plastun,44.7561,136.2939,8.38,78,0,2.24,RU,1696980133
381,langxiang,46.95,128.8833,9.49,59,2,1.57,CN,1696980622
382,fortuna,40.5982,-124.1573,17.19,100,75,2.57,US,1696980622
383,kamloops,50.6665,-120.3192,14.76,68,100,3.6,CA,1696980606
384,qarqaraly,49.4058,75.4742,10.55,57,88,3.84,KZ,1696980623
385,puerto iguazu,-25.5991,-54.5736,27.62,56,0,3.09,AR,1696980623
386,la passe,45.5549,-0.8967,17.21,74,0,1.01,FR,1696980623
387,xinzhou,38.4092,112.7333,11.21,61,10,0.27,CN,1696980623
388,nogliki,51.8333,143.1667,3.52,70,9,2.24,RU,1696980107
389,kirakira,-10.4544,161.9205,28.64,79,89,4.94,SB,1696980624
390,ha tinh,18.3333,105.9,22.64,84,100,4.2,VN,1696980624
391,portland,45.5234,-122.6762,17.96,76,75,6.69,US,1696980054
392,doma,8.3833,8.35,24.99,89,27,0.85,NG,1696980624
393,poxoreo,-15.8372,-54.3892,26.22,66,75,2.05,BR,1696980625
394,bowen,-20.0167,148.2333,25.04,59,34,7.44,AU,1696980625
395,mana,5.6592,-53.7767,27.23,80,0,4.25,GF,1696980626
396,howard springs,-12.497,131.047,29.34,61,86,3.1,AU,1696980076
397,zhelezinka,53.54,75.3072,14.75,57,99,5.14,KZ,1696980626
398,oyama,36.3,139.8,19.77,50,63,0.33,JP,1696980626
399,santa cruz,-17.8,-63.1667,30.03,54,15,6.17,BO,1696980506
400,kulp,38.4972,41.0122,15.11,79,33,0.97,TR,1696980627
401,chyorny yar,48.0624,46.1091,7.08,50,100,3.48,RU,1696980628
402,chateaubourg,48.1112,-1.4002,16.25,89,5,2.16,FR,1696980628
403,luanda,-8.8368,13.2343,24.0,88,75,2.06,AO,1696980628
404,baraboo,43.4711,-89.7443,14.19,47,100,3.6,US,1696980629
405,bandon,51.7469,-8.7425,15.77,98,100,3.95,IE,1696980080
406,harstad,68.799,16.5293,3.97,84,100,12.07,NO,1696980629
407,palma sola,-23.9634,-64.2987,25.44,44,7,0.76,AR,1696980629
408,waddan,29.1614,16.139,21.13,58,0,2.66,LY,1696980121
409,flin flon,54.7682,-101.865,10.91,62,0,3.09,CA,1696980614
410,pontianak,-0.0333,109.3333,24.99,94,20,0.51,ID,1696980604
411,nueva gerona,21.8833,-82.8,29.62,76,98,4.0,CU,1696980630
412,usogorsk,63.4106,48.6872,2.59,71,100,1.86,RU,1696980630
413,creswell,43.9179,-123.0245,15.33,84,57,4.53,US,1696980631
414,taroa,8.7058,171.2275,28.17,78,96,6.2,MH,1696980062
415,shiprock,36.7855,-108.687,27.19,16,11,3.44,US,1696980632
416,yuzhno-kurilsk,44.0306,145.8556,11.88,88,74,8.59,RU,1696980632
417,oarai,36.3167,140.6,19.58,50,52,3.83,JP,1696980632
418,kirensk,57.7853,108.1119,7.23,94,97,2.24,RU,1696980633
419,furstenwalde,52.3667,14.0667,15.21,91,97,3.21,DE,1696980633
420,villa nueva,14.5269,-90.5875,22.01,88,75,3.09,GT,1696980633
421,cobija,-11.0267,-68.7692,32.1,62,40,0.0,BO,1696980633
422,kargasok,59.0556,80.8572,7.76,80,100,1.79,RU,1696980633
423,canmore,51.0834,-115.3521,16.06,44,97,0.51,CA,1696980634
424,inarajan village,13.2736,144.7484,29.66,87,100,9.46,GU,1696980634
425,simanggang,1.2472,111.4528,23.99,100,84,0.0,MY,1696980634
426,cerro azul,21.2,-97.7333,24.75,86,87,2.74,MX,1696980635
427,tete,-16.1564,33.5867,29.05,51,0,5.14,MZ,1696980124
428,saint-philippe,-21.3585,55.7679,21.77,70,52,1.34,RE,1696980045
429,zdolbuniv,50.5206,26.2425,4.52,71,80,2.99,UA,1696980068
430,paulden,34.8856,-112.4682,27.99,24,3,7.15,US,1696980635
431,trail,49.0998,-117.7022,11.62,93,100,2.07,CA,1696980629
432,manokwari,-0.8667,134.0833,27.86,70,100,0.86,ID,1696980056
433,eyl,7.9803,49.8164,26.23,86,100,3.49,SO,1696980636
434,nazyvayevsk,55.5698,71.3529,3.55,76,100,2.3,RU,1696980636
435,palikir - national government center,6.9248,158.1611,31.41,70,40,3.09,FM,1696980105
436,mazamet,43.49,2.373,14.98,67,0,1.54,FR,1696980631
437,hastings,50.8552,0.5729,16.86,46,70,6.87,GB,1696980637
438,agat village,13.3886,144.6585,29.64,85,20,7.2,GU,1696980637
439,lycksele,64.5954,18.6735,3.93,100,100,4.12,SE,1696980638
440,gateway,26.5776,-81.7504,28.32,69,0,3.09,US,1696980638
441,kelso,46.1468,-122.9084,16.38,92,100,3.6,US,1696980638
442,mulayjah,27.271,48.4242,27.27,20,0,0.79,SA,1696980638
443,mwene-ditu,-7.0,23.45,19.43,96,100,2.78,CD,1696980638
444,bontang,0.1333,117.5,26.58,79,100,2.74,ID,1696980639
445,micheweni,-4.9667,39.8333,25.34,82,20,4.07,TZ,1696980639
446,tidjikja,18.5564,-11.4271,31.0,15,3,4.4,MR,1696980639
447,bei'an,24.5399,109.533,18.11,82,99,2.44,CN,1696980639
448,cabedelo,-6.9811,-34.8339,26.37,80,70,5.45,BR,1696980363
449,nagatoro,36.1163,139.1071,20.42,49,88,3.39,JP,1696980640
450,soto la marina,23.7667,-98.2167,24.15,88,100,0.9,MX,1696980640
451,midvagur,62.0511,-7.1939,8.46,76,75,12.86,FO,1696980640
452,tangier,35.7806,-5.8137,22.64,73,0,9.26,MA,1696980640
453,ilam,26.9167,87.9167,18.33,90,55,1.19,NP,1696980641
454,elizabeth city,36.2946,-76.2511,19.01,70,100,0.0,US,1696980630
455,marsala,37.7966,12.4352,24.41,77,0,1.54,IT,1696980641
456,tinajo,29.0788,-13.7081,23.49,50,0,1.03,ES,1696980642
457,ust'-kut,56.7938,105.7672,5.94,93,40,2.26,RU,1696980642
458,nemuro,43.3236,145.575,12.28,66,46,8.31,JP,1696980642
459,ad dujayl,33.8467,44.2344,26.95,31,82,5.14,IQ,1696980643
460,east ballina,-28.8667,153.5833,24.33,57,24,1.42,AU,1696980643
461,tomah,43.9786,-90.504,13.88,47,0,2.06,US,1696980643
462,kikwit,-5.041,18.8162,21.04,97,98,1.11,CD,1696980643
463,dourbali,11.8091,15.8632,29.54,33,8,2.63,TD,1696980643
464,el bauga,18.262,33.9081,30.99,22,3,3.74,SD,1696980093
465,la barceloneta,41.3807,2.1899,21.62,80,0,2.06,ES,1696980644
466,semenivka,52.1783,32.5818,1.12,70,14,2.04,UA,1696980644
467,igrim,63.1906,64.4162,2.79,85,98,5.81,RU,1696980645
468,casper,42.8666,-106.3131,23.33,15,0,7.72,US,1696980645
469,yanbu,24.0891,38.0637,29.02,74,0,1.03,SA,1696980645
470,huarmey,-10.0681,-78.1522,19.67,83,55,4.78,PE,1696980645
471,borisoglebskiy,57.2586,39.1508,-1.07,95,70,2.48,RU,1696980645
472,sidi yahia el gharb,34.3065,-6.3062,18.37,73,45,3.4,MA,1696980645
473,troitsko-pechorsk,62.7084,56.1964,-0.17,88,100,1.79,RU,1696980646
474,akita,39.7167,140.1167,12.52,100,100,2.06,JP,1696980646
475,yermentau,51.6214,73.1069,8.82,78,99,5.91,KZ,1696980646
476,bizerte,37.2744,9.8739,18.0,77,0,0.0,TN,1696980646
477,port shepstone,-30.7414,30.455,19.04,87,100,1.91,ZA,1696980646
478,gadzhiyevo,69.2551,33.3362,-1.02,84,13,3.04,RU,1696980646
479,port blair,11.6667,92.75,26.37,84,80,1.65,IN,1696980073
480,selfoss,63.9331,-20.9971,1.2,79,39,12.99,IS,1696980647
481,bestobe,52.4994,73.0975,9.12,70,100,6.28,KZ,1696980647
482,barquisimeto,10.0739,-69.3228,30.35,45,16,4.63,VE,1696980619
483,boyolangu,-8.1181,111.8935,25.03,76,35,2.23,ID,1696980648
484,tesistan,20.7833,-103.4833,17.57,89,100,2.43,MX,1696980648
485,kourou,5.1552,-52.6478,28.03,79,0,4.03,GF,1696980606
486,pointe aux piments,-20.0628,57.5131,21.4,77,19,3.04,MU,1696980648
487,mil'kovo,55.6078,37.7956,0.23,95,41,3.01,RU,1696980648
488,grand falls-windsor,48.9332,-55.6649,14.17,87,100,0.45,CA,1696979870
489,zaragoza,41.6561,-0.8773,20.01,36,0,1.34,ES,1696980586
490,turpan,42.9333,89.1667,20.39,26,100,0.5,CN,1696980649
491,natal,-5.795,-35.2094,26.12,78,40,4.63,BR,1696980649
492,guixi,28.2886,117.2133,16.93,89,100,0.9,CN,1696980649
493,novodvinsk,64.4165,40.8122,-0.12,91,41,2.81,RU,1696980650
494,luuq,3.7938,42.5445,26.89,59,65,8.9,SO,1696980650
495,raduzhny,62.0961,77.475,1.17,95,9,3.2,RU,1696980650
496,novyy urengoy,66.0833,76.6333,3.1,96,100,8.99,RU,1696979880
497,freetown,8.484,-13.2299,26.84,78,75,1.54,SL,1696980650
498,troia,41.3631,15.3124,18.88,53,75,0.8,IT,1696980651
499,lazaro cardenas,17.9583,-102.2,25.39,89,100,1.39,MX,1696980410
500,aleksandrovsk-sakhalinskiy,50.8975,142.1561,3.65,60,1,3.46,RU,1696980651
501,bay roberts,47.5999,-53.2648,11.75,94,17,2.24,CA,1696980651
502,maintirano,-18.0667,44.0167,25.64,77,58,1.71,MG,1696980652
503,bhinmal,25.0,72.25,24.53,74,3,3.3,IN,1696980652
504,eirunepe,-6.6603,-69.8736,29.37,52,75,1.24,BR,1696980652
505,nantucket,41.2835,-70.0995,17.03,89,0,4.12,US,1696980064
506,champerico,14.3,-91.9167,29.3,79,77,1.85,GT,1696980653
507,saguenay,48.4168,-71.0657,11.71,82,100,1.54,CA,1696980063
508,sharlyk,52.9167,54.75,3.52,85,98,7.26,RU,1696980653
509,port isabel,26.0734,-97.2086,24.04,93,100,3.09,US,1696980653
510,puerto leguizamo,-0.1934,-74.7819,21.75,100,99,1.15,CO,1696980653
511,vila velha,-20.3297,-40.2925,22.97,92,100,3.13,BR,1696980071
512,ust'-abakan,53.8525,91.3742,3.95,93,31,0.0,RU,1696980654
513,medicine hat,50.0501,-110.6683,23.45,31,75,1.03,CA,1696980598
514,xining,36.6167,101.7667,7.0,89,100,0.97,CN,1696980654
515,sohagpur,22.7,78.2,21.93,72,7,1.51,IN,1696980654
516,muzaffargarh,30.0754,71.1921,23.01,37,0,0.83,PK,1696980655
517,nova vicosa,-17.8919,-39.3719,23.87,86,20,3.72,BR,1696980655
518,sola,-13.8833,167.55,24.92,75,100,9.33,VU,1696980119
519,weligama,5.9667,80.4167,25.51,88,100,1.42,LK,1696980655
520,kuruman,-27.4524,23.4325,20.55,51,100,4.09,ZA,1696980655
521,los frentones,-26.4077,-61.4137,33.15,32,48,3.25,AR,1696980655
522,wangjing,24.6,94.0333,18.5,98,11,0.07,IN,1696980656
523,port moresby,-9.4431,147.1797,26.68,94,75,7.72,PG,1696980420
524,revda,56.801,59.9303,1.82,97,100,2.74,RU,1696980656
525,suntar,62.1444,117.6319,7.86,81,100,3.58,RU,1696980656
526,isoka,-10.1606,32.6335,19.64,59,4,1.12,ZM,1696980656
527,kismayo,-0.3582,42.5454,25.38,80,68,5.54,SO,1696980657
528,juan griego,11.0817,-63.9655,30.07,74,3,7.72,VE,1696980657
529,arawa,-6.2132,155.5367,28.13,72,100,0.71,PG,1696980657
530,quebo,11.3333,-14.9333,24.22,95,100,1.01,GW,1696980657
531,dawei,14.0833,98.2,23.84,94,87,1.49,MM,1696980096
532,opuwo,-18.0607,13.84,20.62,38,59,1.88,NA,1696980657
533,kingscliff,-28.2667,153.5667,24.97,53,31,3.6,AU,1696980658
534,vilcun,-38.65,-72.2333,9.41,87,79,1.14,CL,1696980658
535,minas de marcona,-15.2119,-75.1103,14.69,80,65,5.69,PE,1696980658
536,sars,56.5502,57.1366,2.95,91,100,3.45,RU,1696980658
537,rehoboth,-23.3167,17.0833,20.69,23,76,1.18,NA,1696980502
538,lushun,38.8,121.2667,13.12,50,53,2.32,CN,1696980659
539,barra do bugres,-15.0725,-57.1811,28.95,59,70,0.42,BR,1696980405
540,diu,20.7141,70.9822,23.32,83,2,3.58,IN,1696980659
541,leicester,52.6386,-1.1317,17.12,83,100,7.21,GB,1696980461
542,brookings,44.3114,-96.7984,15.61,37,0,0.0,US,1696980659
543,bojnurd,37.4747,57.329,10.97,82,0,1.03,IR,1696980659
544,razdol'noye,45.7708,33.4878,10.15,50,11,5.93,UA,1696980660
545,keetmanshoop,-26.5833,18.1333,23.51,28,58,3.09,NA,1696980660
546,estevan,49.1334,-102.9842,16.19,47,0,8.23,CA,1696980531
547,saudarkrokur,65.7461,-19.6394,2.55,99,100,14.02,IS,1696980660
548,banff,51.1762,-115.5698,15.57,44,100,0.51,CA,1696980660
549,novyy urgal,51.0736,132.5642,3.33,71,10,0.46,RU,1696980660
550,sept-iles,50.2001,-66.3821,11.14,95,75,1.54,CA,1696980603
551,pizarro,4.9533,-77.366,26.65,89,88,2.93,CO,1696980661
552,fort meade,39.1082,-76.7432,16.66,73,47,0.87,US,1696980661
553,fuerte olimpo,-21.0415,-57.8738,31.21,42,35,2.72,PY,1696980662
554,prince rupert,54.3161,-130.3201,13.05,82,100,2.06,CA,1696980662
555,sierra vista southeast,31.4539,-110.2164,28.92,21,20,2.24,US,1696980662
556,thomson,33.4707,-82.5046,22.79,52,0,3.09,US,1696980662
557,kone,-21.0595,164.8658,26.0,54,73,1.89,NC,1696980662
558,viqueque,-8.8673,126.3658,28.98,57,55,2.68,TL,1696980663
559,broome,42.2506,-75.833,12.21,66,100,2.06,US,1696980663
560,simeonovgrad,42.0333,25.8333,16.4,50,100,1.42,BG,1696980663
561,talakan,50.3167,130.3667,8.37,66,10,2.14,RU,1696980664
562,boende,-0.2167,20.8667,20.39,99,99,1.15,CD,1696980664
563,ridgecrest,35.6225,-117.6709,30.92,21,40,6.17,US,1696980664
564,jaigaon,26.8477,89.3756,22.22,79,24,2.55,IN,1696980664
565,damboa,11.156,12.7576,27.18,32,7,0.31,NG,1696980665
